map_heading: Waar staan de deelauto's?
map_text_above_map: >-
  Hieronder staan alle locaties waar op dit moment deelauto initiatieven zijn
  gestart. Als je abonnee van EasyDriving bent, kun je een van deze deelauto´s
  reserveren en gebruiken. Deze eerste deelinitiatieven zijn met succes gestart
  en we zijn volop bezig om nieuwe initiatieven van de grond te krijgen!
map_heading_below_map: Bij jou in de buurt nog geen deelauto?
map_text_below_map: >-
  Zodra er voldoende belangstelling in dezelfde omgeving is, kunnen wij er
  mogelijk voor zorgen dat er elektrische auto’s komen te staan bij jou in de
  buurt. In het kort betekent dit dat wij elke groep geïnteresseerden voor een
  elektrische deelauto serieus willen nemen door te kijken naar de mogelijkheden
  voor een succesvol lokaal deelauto initiatief. Dit kunnen geïnteresseerden uit
  dezelfde woonwijk, hetzelfde dorp of dezelfde straat zijn, maar dit kan ook
  een groep ondernemers uit een bedrijfsverzamelgebouw of een groep ambtenaren
  van een gemeente zijn. 


  Lijkt het jou dus wat om elektrische auto’s te delen met je buren of
  collega’s? Vraag eens rond in je omgeving en mogelijk gaan wij dan met jullie
  aan de slag om een deelauto initiatief vorm te geven! De deelauto’s plaatsen
  wij geheel kosteloos - je betaalt dus echt alleen voor gebruik.
  [Mail](mailto:info@easy-driving.eu) of bel ons voor de mogelijkheden op maat.
zoom_level: 9
car_locations:
  - address: 'Oude Merenweg 10, Meerstad'
    lat: 53.226734
    long: 6.64806
  - address: 'Talingeneiland 15, Meerstad'
    lat: 53.226371
    long: 6.651594
  - address: 'Fivelweg 49, Zijldijk'
    lat: '53.382367'
    long: '6.769441'
  - address: 'Borgweg 7, Zeerijp'
    lat: '53.346545'
    long: '6.756223'
  - address: 'Hoofdstraat 85, ´t Zandt'
    lat: '53.366100'
    long: '6.774280'
  - address: 'Hunzeweg 53, Garnwerd'
    lat: '53.303012'
    long: '6.493964'
  - address: 'Hoofdstraat 148, Midwolde'
    lat: '53.185110'
    long: '6.394275'
  - address: 'Hoofdstraat 125, Midwolde'
    lat: ' 53.180197'
    long: '6.391128'
  - address: 'Wierdeweg 3, Leermens'
    lat: '53.345523'
    long: '6.797982'
  - address: 'Dekemawei 11, Baard'
    lat: '53.143820'
    long: '5.665640'
  - address: 'Hoofdweg 195, Harkstede'
    lat: '53.220640'
    long: '6.648420'
  - address: 'Borgdomein 4, Leek'
    lat: '53.156480'
    long: '6.373800'
  - address: 'Havenplein 2, Harlingen'
    lat: '53.174880'
    long: '5.411990'
  - address: 'Berkenweg 1, Zuidlaren'
    lat: '53.081144'
    long: '6.666995'
