map_heading: Waar staan de deelauto's?
map_text_above_map: Hieronder staan alle locaties waar op dit moment deelauto
  initiatieven zijn gestart. Als je abonnee van EasyDriving bent, kun je een van
  deze deelauto's reserveren en gebruiken. Deze eerste deelinitiatieven zijn met
  succes gestart en we zijn volop bezig om nieuwe initiatieven te ontwikkelen!
map_heading_below_map: Bij jou in de buurt nog geen deelauto?
map_text_below_map: >-
  Als er voldoende belangstelling in dezelfde omgeving is, kunnen wij er
  mogelijk voor zorgen dat er elektrische auto’s komen te staan bij jou in de
  buurt. In het kort betekent dit dat wij elke groep geïnteresseerden voor een
  elektrische deelauto serieus nemen door te kijken naar de mogelijkheden voor
  een succesvol lokaal deelauto initiatief. Dit kunnen geïnteresseerden uit
  dezelfde woonwijk, hetzelfde dorp of dezelfde straat zijn, maar dit kan ook
  een groep ondernemers uit een bedrijfsverzamelgebouw of een groep ambtenaren
  van een gemeente zijn.


  Lijkt het jou dus wat om elektrische auto’s te delen met je buren of collega’s? Vraag eens rond in je omgeving en mogelijk gaan wij dan met jullie aan de slag om een deelauto initiatief vorm te geven! De deelauto’s plaatsen wij geheel kosteloos - je betaalt dus echt alleen voor gebruik. Mail of bel ons voor de mogelijkheden op maat.
zoom_level: 9
car_locations:
  - address: Havenplein 2a, Harlingen
    car-name: Kia e-Niro
    lat: "53.174880"
    long: "5.411990"
  - address: Raadhuisstraat 1, Roden
    car-name: Nissan Leaf
    lat: "53.136970"
    long: "6.433610"
  - address: Hoofdstraat 125, Midwolde
    car-name: 2x Nissan Leaf
    lat: "53.180205"
    long: "6.391040"
  - address: Hoofdweg 125, Midwolde
    car-name: Nissan Leaf
    lat: "53.180205"
    long: "6.391040"
  - address: Onnerweg 33, Haren
    car-name: Nissan Leaf
    lat: "53.16710592453491"
    long: "6.6174927562633306"
  - address: Clusiusweg 1, Haren
    car-name: Hyundai Kona
    lat: "53.176630"
    long: "6.610180"
  - address: Van Royenlaan 1, Groningen
    car-name: Nissan Leaf
    lat: "53.197326588069615"
    long: "6.579939656264288"
  - car-name: Nissan Leaf
    address: Johann Faberlaan 25, Hoogkerk
    lat: "53.203670"
    long: "6.511580"
  - address: Van Wassenaerstraat 8, Groningen
    car-name: Nissan Leaf
    lat: "53.21140641906056"
    long: "6.551218393159384"
  - address: Tuinbouwstraat 118A, Groningen
    car-name: Nissan Leaf
    lat: "53.226982629724404"
    long: "6.553701660956061"
  - address: Langs de Erven 275, Groningen
    car-name: Hyundai Kona
    lat: "53.219412034410404"
    long: "6.653181371607974"
  - address: Hoofdweg 195, Harkstede
    car-name: Nissan Leaf
    lat: "53.220640"
    long: "6.648420"
  - address: Nachtegaalstraat 61, Groningen
    car-name: Nissan Leaf
    lat: "53.23000888187069"
    long: "6.5825935409223595"
  - address: Kadijk 4, Groningen
    car-name: Hyundai Kona Electric
    lat: "53.24239033284893"
    long: "6.531030325038408"
  - address: Krassumerstraat 21, Garnwerd
    car-name: Nissan Leaf
    lat: "53.30397578330264"
    long: "6.492183921339936"
  - address: Kadijk 5, Groningen
    car-name: Hyundai Kona Electric
    lat: "53.242370"
    long: "6.530760"
  - address: Hoofdstraat 85, 't Zand
    car-name: Nissan Leaf
    lat: "53.36966381414544"
    long: "6.7714333329845795"
